#date_dd/MM/yyyy,time,latitude,longitude,depth,heading,pitch,roll
10/02/2024,19:33:23,0.000224016,0.000224579,-0.137953147,-0.000000000,0.000000000,-0.000000000
10/02/2024,19:33:23,0.000224016,0.000224579,-0.137953147,-0.000000000,0.000000000,-0.000000000
10/02/2024,19:33:23,0.000224016,0.000224579,-0.137953147,-0.000000000,0.000000000,-0.000000000
10/02/2024,19:33:24,0.000224016,0.000224579,-0.137953147,-0.000000000,0.000000000,-0.000000000
10/02/2024,19:33:24,0.000224016,0.000224579,-0.137953147,-0.000000000,0.000000000,-0.000000000
10/02/2024,19:33:24,0.000224016,0.000224579,-0.137953147,-0.000000000,0.000000000,-0.000000000
10/02/2024,19:33:24,0.000224016,0.000224579,-0.137953147,-0.000000000,0.000000000,-0.000000000
10/02/2024,19:33:24,0.000224016,0.000224579,-0.137953147,-0.000000000,0.000000000,-0.000000000
10/02/2024,19:33:24,0.000224016,0.000224579,-0.137953147,-0.000000000,0.000000000,-0.000000000
10/02/2024,19:33:24,0.000224016,0.000224579,-0.137953147,-0.000000000,0.000000000,-0.000000000
10/02/2024,19:33:24,0.000224016,0.000224579,-0.137953147,-0.000000000,0.000000000,-0.000000000
10/02/2024,19:33:24,0.000224016,0.000224579,-0.137953147,-0.000000000,0.000000000,-0.000000000
10/02/2024,19:33:24,0.000224016,0.000224579,-0.137953147,-0.000000000,0.000000000,-0.000000000
10/02/2024,19:33:25,0.000224016,0.000224579,-0.137953147,-0.000000000,0.000000000,-0.000000000
10/02/2024,19:33:25,0.000224016,0.000224579,-0.137953147,-0.000000000,0.000000000,-0.000000000
10/02/2024,19:33:25,0.000224016,0.000224579,-0.137953147,-0.000000000,0.000000000,-0.000000000
10/02/2024,19:33:25,0.000224016,0.000224579,-0.137953147,-0.000000000,0.000000000,-0.000000000
10/02/2024,19:33:25,0.000224016,0.000224579,-0.137953147,-0.000000000,0.000000000,-0.000000000
10/02/2024,19:33:25,0.000224122,0.000224579,-0.137953147,-0.000000000,0.000000000,-0.000000000
10/02/2024,19:33:25,0.000224536,0.000224579,-0.137953147,-0.000000000,0.000000000,-0.000000000
10/02/2024,19:33:25,0.000224831,0.000224579,-0.137953147,-0.000000000,0.000000000,-0.000000000
10/02/2024,19:33:25,0.000225419,0.000224579,-0.137953147,-0.000000000,0.000000000,-0.000000000
10/02/2024,19:33:25,0.000226100,0.000224579,-0.137953147,-0.000000000,0.000000000,-0.000000000
10/02/2024,19:33:26,0.000227325,0.000224579,-0.137953147,-0.000000000,0.000000000,-0.000000000
10/02/2024,19:33:26,0.000227650,0.000224579,-0.137953147,-0.000000000,0.000000000,-0.000000000
10/02/2024,19:33:26,0.000228657,0.000224579,-0.137953147,-0.000000000,0.000000000,-0.000000000
10/02/2024,19:33:26,0.000229878,0.000224579,-0.137953147,-0.000000000,0.000000000,-0.000000000
10/02/2024,19:33:26,0.000230234,0.000224579,-0.137953147,-0.000000000,0.000000000,-0.000000000
10/02/2024,19:33:26,0.000231313,0.000224579,-0.137953147,-0.000000000,0.000000000,-0.000000000
10/02/2024,19:33:26,0.000232224,0.000224579,-0.137953147,-0.000000000,0.000000000,-0.000000000
10/02/2024,19:33:26,0.000233510,0.000224579,-0.137953147,-0.000000000,0.000000000,-0.000000000
10/02/2024,19:33:26,0.000234250,0.000224579,-0.137953147,-0.000000000,0.000000000,-0.000000000
10/02/2024,19:33:26,0.000234992,0.000224579,-0.137953147,-0.000000000,0.000000000,-0.000000000
10/02/2024,19:33:27,0.000236295,0.000224579,-0.137953147,-0.000000000,0.000000000,-0.000000000
10/02/2024,19:33:27,0.000236855,0.000224579,-0.137953147,-0.000000000,0.000000000,-0.000000000
10/02/2024,19:33:27,0.000238162,0.000224579,-0.137953147,-0.000000000,0.000000000,-0.000000000
10/02/2024,19:33:27,0.000238536,0.000224579,-0.137953147,-0.000000000,0.000000000,-0.000000000
10/02/2024,19:33:27,0.000239472,0.000224579,-0.137953147,-0.000000000,0.000000000,-0.000000000
10/02/2024,19:33:27,0.000240596,0.000224579,-0.137953147,-0.000000000,0.000000000,-0.000000000
10/02/2024,19:33:27,0.000241908,0.000224579,-0.137953147,-0.000000000,0.000000000,-0.000000000
10/02/2024,19:33:27,0.000242845,0.000224579,-0.137953147,-0.000000000,0.000000000,-0.000000000
10/02/2024,19:33:27,0.000243783,0.000224579,-0.137953147,-0.000000000,0.000000000,-0.000000000
10/02/2024,19:33:27,0.000243970,0.000224579,-0.137953147,-0.000000000,0.000000000,-0.000000000
10/02/2024,19:33:28,0.000245471,0.000224579,-0.137953147,-0.000000000,0.000000000,-0.000000000
10/02/2024,19:33:28,0.000246221,0.000224579,-0.137953147,-0.000000000,0.000000000,-0.000000000
10/02/2024,19:33:28,0.000247535,0.000224579,-0.137953147,-0.000000000,0.000000000,-0.000000000
10/02/2024,19:33:28,0.000248285,0.000224579,-0.137953147,-0.000000000,0.000000000,-0.000000000
10/02/2024,19:33:28,0.000249036,0.000224579,-0.137953147,-0.000000000,0.000000000,-0.000000000
10/02/2024,19:33:28,0.000249974,0.000224579,-0.137953147,-0.000000000,0.000000000,-0.000000000
10/02/2024,19:33:28,0.000250724,0.000224579,-0.137953147,-0.000000000,0.000000000,-0.000000000
10/02/2024,19:33:28,0.000251850,0.000224579,-0.137953147,-0.000000000,0.000000000,-0.000000000
10/02/2024,19:33:28,0.000253164,0.000224579,-0.137953147,-0.000000000,0.000000000,-0.000000000
10/02/2024,19:33:28,0.000253914,0.000224579,-0.137953147,-0.000000000,0.000000000,-0.000000000
10/02/2024,19:33:29,0.000254477,0.000224579,-0.137953147,-0.000000000,0.000000000,-0.000000000
10/02/2024,19:33:29,0.000255978,0.000224579,-0.137953147,-0.000000000,0.000000000,-0.000000000
10/02/2024,19:33:29,0.000256917,0.000224579,-0.137953147,-0.000000000,0.000000000,-0.000000000
10/02/2024,19:33:29,0.000257292,0.000224579,-0.137953147,-0.000000000,0.000000000,-0.000000000
10/02/2024,19:33:29,0.000258606,0.000224579,-0.137953147,-0.000000000,0.000000000,-0.000000000
10/02/2024,19:33:29,0.000259356,0.000224579,-0.137953147,-0.000000000,0.000000000,-0.000000000
10/02/2024,19:33:29,0.000260670,0.000224579,-0.137953147,-0.000000000,0.000000000,-0.000000000
10/02/2024,19:33:29,0.000261420,0.000224579,-0.137953147,-0.000000000,0.000000000,-0.000000000
10/02/2024,19:33:29,0.000262171,0.000224579,-0.137953147,-0.000000000,0.000000000,-0.000000000
10/02/2024,19:33:29,0.000263109,0.000224579,-0.137953147,-0.000000000,0.000000000,-0.000000000
10/02/2024,19:33:30,0.000263860,0.000224579,-0.137953147,-0.000000000,0.000000000,-0.000000000
10/02/2024,19:33:30,0.000264798,0.000224579,-0.137953147,-0.000000000,0.000000000,-0.000000000
10/02/2024,19:33:30,0.000266299,0.000224579,-0.137953147,-0.000000000,0.000000000,-0.000000000
10/02/2024,19:33:30,0.000266487,0.000224579,-0.137953147,-0.000000000,0.000000000,-0.000000000
10/02/2024,19:33:30,0.000267801,0.000224579,-0.137953147,-0.000000000,0.000000000,-0.000000000
10/02/2024,19:33:30,0.000268739,0.000224579,-0.137953147,-0.000000000,0.000000000,-0.000000000
10/02/2024,19:33:30,0.000269489,0.000224579,-0.137953147,-0.000000000,0.000000000,-0.000000000
10/02/2024,19:33:30,0.000270615,0.000224579,-0.137953147,-0.000000000,0.000000000,-0.000000000
10/02/2024,19:33:30,0.000271741,0.000224579,-0.137953147,-0.000000000,0.000000000,-0.000000000
10/02/2024,19:33:30,0.000272304,0.000224579,-0.137953147,-0.000000000,0.000000000,-0.000000000
10/02/2024,19:33:31,0.000273324,0.000224579,-0.137953147,-0.000000000,0.000000000,-0.000000000
10/02/2024,19:33:31,0.000273935,0.000224735,-0.137953147,0.000000008,-0.000000017,0.000000000
10/02/2024,19:33:31,0.000274457,0.000225192,-0.137953147,0.000000022,-0.000000045,0.000000000
10/02/2024,19:33:31,0.000274712,0.000225616,-0.137953147,0.000000051,-0.000000101,0.000000000
10/02/2024,19:33:31,0.000274953,0.000226245,-0.137953147,0.000000078,-0.000000156,0.000000000
10/02/2024,19:33:31,0.000275131,0.000226956,-0.137953147,0.000000107,-0.000000214,0.000000000
10/02/2024,19:33:31,0.000275238,0.000227569,-0.137953147,0.000000144,-0.000000288,0.000000000
10/02/2024,19:33:31,0.000275356,0.000228544,-0.137953147,0.000000169,-0.000000338,0.000000000
10/02/2024,19:33:31,0.000275449,0.000229739,-0.137953147,0.000000213,-0.000000426,0.000000000
10/02/2024,19:33:31,0.000275486,0.000230441,-0.137953147,0.000000226,-0.000000452,0.000000000
10/02/2024,19:33:32,0.000275509,0.000230975,-0.137953147,0.000000258,-0.000000516,0.000000000
10/02/2024,19:33:32,0.000275552,0.000232421,-0.137953147,0.000000296,-0.000000593,0.000000000
10/02/2024,19:33:32,0.000275563,0.000232970,-0.137953147,0.000000328,-0.000000657,0.000000000
10/02/2024,19:33:32,0.000275578,0.000233889,-0.137953147,0.000000361,-0.000000721,0.000000000
10/02/2024,19:33:32,0.000275593,0.000235184,-0.137953147,0.000000393,-0.000000785,0.000000000
10/02/2024,19:33:32,0.000275596,0.000235555,-0.137953147,0.000000418,-0.000000837,0.000000000
10/02/2024,19:33:32,0.000275603,0.000236672,-0.137953177,0.000000457,-0.000000914,0.000000000
10/02/2024,19:33:32,0.000275607,0.000237604,-0.137953177,0.000000489,-0.000000978,0.000000000
10/02/2024,19:33:32,0.000275610,0.000238351,-0.137953177,0.000000515,-0.000001030,0.000000000
10/02/2024,19:33:32,0.000275612,0.000239287,-0.137953177,0.000000547,-0.000001094,0.000000000
10/02/2024,19:33:33,0.000275614,0.000240222,-0.137953177,0.000000579,-0.000001159,0.000000000
10/02/2024,19:33:33,0.000275616,0.000241346,-0.137953177,0.000000618,-0.000001236,0.000000000
10/02/2024,19:33:33,0.000275617,0.000242471,-0.137953177,0.000000657,-0.000001313,0.000000000
10/02/2024,19:33:33,0.000275617,0.000243033,-0.137953177,0.000000676,-0.000001352,0.000000000
10/02/2024,19:33:33,0.000275618,0.000244158,-0.137953177,0.000000715,-0.000001429,0.000000000
10/02/2024,19:33:33,0.000275618,0.000245471,-0.137953177,0.000000747,-0.000001493,0.000000000
10/02/2024,19:33:33,0.000275619,0.000245846,-0.137953177,0.000000772,-0.000001545,0.000000000
10/02/2024,19:33:33,0.000275619,0.000246784,-0.137953177,0.000000805,-0.000001609,0.000000000
10/02/2024,19:33:33,0.000275619,0.000248285,-0.137953177,0.000000843,-0.000001687,0.000000000
10/02/2024,19:33:33,0.000275619,0.000248661,-0.137953177,0.000000869,-0.000001738,0.000000000
10/02/2024,19:33:34,0.000275619,0.000249786,-0.137953177,0.000000908,-0.000001815,0.000000000
10/02/2024,19:33:34,0.000275619,0.000251100,-0.137953177,0.000000953,-0.000001905,0.000000000
10/02/2024,19:33:34,0.000275619,0.000251850,-0.137953177,0.000000978,-0.000001957,0.000000000
10/02/2024,19:33:34,0.000275619,0.000252601,-0.137953177,0.000001004,-0.000002008,0.000000000
10/02/2024,19:33:34,0.000275619,0.000253727,-0.137953192,0.000001024,-0.000002047,0.000000000
10/02/2024,19:33:34,0.000275619,0.000254665,-0.137953192,0.000001075,-0.000002150,0.000000000
10/02/2024,19:33:34,0.000275619,0.000255040,-0.137953192,0.000001088,-0.000002176,0.000000000
10/02/2024,19:33:34,0.000275619,0.000256354,-0.137953192,0.000001133,-0.000002266,0.000000000
10/02/2024,19:33:34,0.000275619,0.000257667,-0.137953192,0.000001172,-0.000002343,0.000000000
10/02/2024,19:33:34,0.000275619,0.000258043,-0.137953192,0.000001191,-0.000002382,0.000000000
10/02/2024,19:33:35,0.000275619,0.000259169,-0.137953192,0.000001230,-0.000002459,0.000000000
10/02/2024,19:33:35,0.000275619,0.000260080,-0.137953192,0.000001257,-0.000002513,0.000000000
10/02/2024,19:33:35,0.000275463,0.000260620,-0.137953192,0.000001269,-0.000002539,0.000000000
10/02/2024,19:33:35,0.000275186,0.000260946,-0.137953267,0.000001276,-0.000002551,0.000000000
10/02/2024,19:33:35,0.000274696,0.000261256,-0.137953311,0.000001280,-0.000002561,0.000000000
10/02/2024,19:33:35,0.000274216,0.000261443,-0.137953311,0.000001283,-0.000002566,0.000000000
10/02/2024,19:33:35,0.000273242,0.000261677,-0.137953311,0.000001285,-0.000002570,0.000000000
10/02/2024,19:33:35,0.000272310,0.000261811,-0.137953311,0.000001286,-0.000002572,0.000000000
10/02/2024,19:33:35,0.000271985,0.000261845,-0.137953281,0.000001287,-0.000002573,0.000000000
10/02/2024,19:33:35,0.000270978,0.000261927,-0.137953281,0.000001287,-0.000002574,0.000000000
10/02/2024,19:33:36,0.000269933,0.000261983,-0.137953281,0.000001287,-0.000002574,0.000000000
10/02/2024,19:33:36,0.000269043,0.000262016,-0.137953281,0.000001287,-0.000002575,0.000000000
10/02/2024,19:33:36,0.000267959,0.000262045,-0.137953281,0.000001287,-0.000002575,0.000000000
10/02/2024,19:33:36,0.000267594,0.000262052,-0.137953281,0.000001287,-0.000002575,0.000000000
10/02/2024,19:33:36,0.000266494,0.000262070,-0.137953281,0.000001287,-0.000002575,0.000000000
10/02/2024,19:33:36,0.000265385,0.000262082,-0.137953281,0.000001287,-0.000002575,0.000000000
10/02/2024,19:33:36,0.000264271,0.000262090,-0.137953281,0.000001287,-0.000002575,0.000000000
10/02/2024,19:33:36,0.000263713,0.000262093,-0.137953281,0.000001287,-0.000002575,0.000000000
10/02/2024,19:33:36,0.000262967,0.000262096,-0.137953281,0.000001287,-0.000002575,0.000000000
10/02/2024,19:33:36,0.000261847,0.000262100,-0.137953281,0.000001287,-0.000002575,0.000000000
10/02/2024,19:33:37,0.000261099,0.000262102,-0.137953281,0.000001287,-0.000002575,0.000000000
10/02/2024,19:33:37,0.000259976,0.000262104,-0.137953281,0.000001287,-0.000002575,0.000000000
10/02/2024,19:33:37,0.000259226,0.000262105,-0.137953281,0.000001287,-0.000002575,0.000000000
10/02/2024,19:33:37,0.000258102,0.000262106,-0.137953281,0.000001287,-0.000002575,0.000000000
10/02/2024,19:33:37,0.000257352,0.000262107,-0.137953281,0.000001287,-0.000002575,0.000000000
10/02/2024,19:33:37,0.000255852,0.000262107,-0.137953281,0.000001287,-0.000002575,0.000000000
10/02/2024,19:33:37,0.000255477,0.000262107,-0.137953281,0.000001287,-0.000002575,0.000000000
10/02/2024,19:33:37,0.000254352,0.000262108,-0.137953281,0.000001287,-0.000002575,0.000000000
10/02/2024,19:33:37,0.000253414,0.000262108,-0.137953281,0.000001287,-0.000002575,0.000000000
10/02/2024,19:33:37,0.000252288,0.000262108,-0.137953281,0.000001287,-0.000002575,0.000000000
10/02/2024,19:33:38,0.000251537,0.000262108,-0.137953281,0.000001287,-0.000002575,0.000000000
10/02/2024,19:33:38,0.000250224,0.000262108,-0.137953281,0.000001287,-0.000002575,0.000000000
10/02/2024,19:33:38,0.000249849,0.000262108,-0.137953281,0.000001287,-0.000002575,0.000000000
10/02/2024,19:33:38,0.000248348,0.000262108,-0.137953281,0.000001287,-0.000002575,0.000000000
10/02/2024,19:33:38,0.000247785,0.000262108,-0.137953281,0.000001287,-0.000002575,0.000000000
10/02/2024,19:33:38,0.000246659,0.000262108,-0.137953281,0.000001287,-0.000002575,0.000000000
10/02/2024,19:33:38,0.000245908,0.000262108,-0.137953281,0.000001287,-0.000002575,0.000000000
10/02/2024,19:33:38,0.000244970,0.000262108,-0.137953281,0.000001287,-0.000002575,0.000000000
10/02/2024,19:33:38,0.000243844,0.000262108,-0.137953281,0.000001287,-0.000002575,0.000000000
10/02/2024,19:33:38,0.000243094,0.000262108,-0.137953281,0.000001287,-0.000002575,0.000000000
10/02/2024,19:33:39,0.000242343,0.000262108,-0.137953281,0.000001287,-0.000002575,0.000000000
10/02/2024,19:33:39,0.000240842,0.000262108,-0.137953281,0.000001287,-0.000002575,0.000000000
10/02/2024,19:33:39,0.000240467,0.000262108,-0.137953281,0.000001287,-0.000002575,0.000000000
10/02/2024,19:33:39,0.000239341,0.000262108,-0.137953281,0.000001287,-0.000002575,0.000000000
10/02/2024,19:33:39,0.000238590,0.000262108,-0.137953281,0.000001287,-0.000002575,0.000000000
10/02/2024,19:33:39,0.000237464,0.000262108,-0.137953281,0.000001287,-0.000002575,0.000000000
10/02/2024,19:33:39,0.000236713,0.000262108,-0.137953281,0.000001287,-0.000002575,0.000000000
10/02/2024,19:33:39,0.000235212,0.000262108,-0.137953281,0.000001287,-0.000002575,0.000000000
10/02/2024,19:33:39,0.000234274,0.000262108,-0.137953281,0.000001287,-0.000002575,0.000000000
10/02/2024,19:33:39,0.000233711,0.000262108,-0.137953281,0.000001287,-0.000002575,0.000000000
10/02/2024,19:33:40,0.000232397,0.000262108,-0.137953281,0.000001287,-0.000002575,0.000000000
10/02/2024,19:33:40,0.000232022,0.000262108,-0.137953281,0.000001287,-0.000002575,0.000000000
10/02/2024,19:33:40,0.000231084,0.000262108,-0.137953281,0.000001287,-0.000002575,0.000000000
10/02/2024,19:33:40,0.000230172,0.000261894,-0.137953192,0.000001276,-0.000002552,0.000000000
10/02/2024,19:33:40,0.000229633,0.000261496,-0.137953058,0.000001256,-0.000002513,0.000000000
10/02/2024,19:33:40,0.000229236,0.000260953,-0.137952998,0.000001232,-0.000002463,0.000000000
10/02/2024,19:33:40,0.000228852,0.000260024,-0.137953028,0.000001198,-0.000002396,0.000000000
10/02/2024,19:33:40,0.000228770,0.000259731,-0.137953073,0.000001180,-0.000002361,0.000000000
10/02/2024,19:33:40,0.000228576,0.000258799,-0.137953147,0.000001144,-0.000002287,0.000000000
10/02/2024,19:33:40,0.000228481,0.000258143,-0.137953147,0.000001106,-0.000002212,0.000000000
10/02/2024,19:33:41,0.000228377,0.000257122,-0.137953147,0.000001081,-0.000002161,0.000000000
10/02/2024,19:33:41,0.000228326,0.000256422,-0.137953117,0.000001042,-0.000002085,0.000000000
10/02/2024,19:33:41,0.000228262,0.000255173,-0.137953103,0.000001010,-0.000002021,0.000000000
10/02/2024,19:33:41,0.000228231,0.000254266,-0.137953103,0.000000991,-0.000001982,0.000000000
10/02/2024,19:33:41,0.000228204,0.000253167,-0.137953103,0.000000953,-0.000001905,0.000000000
10/02/2024,19:33:41,0.000228200,0.000252983,-0.137953103,0.000000933,-0.000001867,0.000000000
10/02/2024,19:33:41,0.000228176,0.000251318,-0.137953103,0.000000875,-0.000001751,0.000000000
10/02/2024,19:33:41,0.000228173,0.000250946,-0.137953103,0.000000863,-0.000001725,0.000000000
10/02/2024,19:33:41,0.000228163,0.000249643,-0.137953103,0.000000818,-0.000001635,0.000000000
10/02/2024,19:33:41,0.000228158,0.000248709,-0.137953103,0.000000785,-0.000001571,0.000000000
10/02/2024,19:33:42,0.000228154,0.000247775,-0.137953103,0.000000753,-0.000001506,0.000000000
10/02/2024,19:33:42,0.000228151,0.000246652,-0.137953103,0.000000715,-0.000001429,0.000000000
10/02/2024,19:33:42,0.000228151,0.000246465,-0.137953103,0.000000708,-0.000001416,0.000000000
10/02/2024,19:33:42,0.000228149,0.000245341,-0.137953103,0.000000669,-0.000001339,0.000000000
10/02/2024,19:33:42,0.000228148,0.000244591,-0.137953103,0.000000644,-0.000001287,0.000000000
10/02/2024,19:33:42,0.000228146,0.000243279,-0.137953103,0.000000599,-0.000001197,0.000000000
10/02/2024,19:33:42,0.000228146,0.000242341,-0.137953103,0.000000566,-0.000001133,0.000000000
10/02/2024,19:33:42,0.000228145,0.000241591,-0.137953103,0.000000541,-0.000001081,0.000000000
10/02/2024,19:33:42,0.000228145,0.000240466,-0.137953103,0.000000502,-0.000001004,0.000000000
10/02/2024,19:33:42,0.000228145,0.000239903,-0.137953103,0.000000483,-0.000000966,0.000000000
10/02/2024,19:33:43,0.000228145,0.000238777,-0.137953103,0.000000431,-0.000000863,0.000000000
10/02/2024,19:33:43,0.000228144,0.000237651,-0.137953132,0.000000406,-0.000000811,0.000000000
10/02/2024,19:33:43,0.000228144,0.000236901,-0.137953132,0.000000380,-0.000000760,0.000000000
10/02/2024,19:33:43,0.000228144,0.000235775,-0.137953132,0.000000341,-0.000000682,0.000000000
10/02/2024,19:33:43,0.000228144,0.000234462,-0.137953132,0.000000303,-0.000000605,0.000000000
10/02/2024,19:33:43,0.000228144,0.000233899,-0.137953132,0.000000277,-0.000000554,0.000000000
10/02/2024,19:33:43,0.000228144,0.000233148,-0.137953132,0.000000251,-0.000000502,0.000000000
10/02/2024,19:33:43,0.000228144,0.000232022,-0.137953132,0.000000212,-0.000000425,0.000000000
10/02/2024,19:33:43,0.000228144,0.000231272,-0.137953132,0.000000187,-0.000000373,0.000000000
10/02/2024,19:33:43,0.000228144,0.000230146,-0.137953132,0.000000148,-0.000000296,0.000000000
10/02/2024,19:33:44,0.000228144,0.000229020,-0.137953132,0.000000109,-0.000000219,0.000000000
10/02/2024,19:33:44,0.000228144,0.000228269,-0.137953132,0.000000084,-0.000000167,0.000000000
10/02/2024,19:33:44,0.000228144,0.000227143,-0.137953132,0.000000045,-0.000000090,0.000000000
10/02/2024,19:33:44,0.000228144,0.000226580,-0.137953132,0.000000026,-0.000000051,0.000000000
10/02/2024,19:33:44,0.000228144,0.000225079,-0.137953132,-0.000000026,0.000000051,0.000000000
10/02/2024,19:33:44,0.000228144,0.000224141,-0.137953132,-0.000000058,0.000000116,0.000000000
10/02/2024,19:33:44,0.000228144,0.000223766,-0.137953132,-0.000000071,0.000000142,0.000000000
10/02/2024,19:33:44,0.000228144,0.000222264,-0.137953132,-0.000000109,0.000000219,0.000000000
10/02/2024,19:33:44,0.000228144,0.000221326,-0.137953147,-0.000000154,0.000000309,0.000000000
10/02/2024,19:33:44,0.000228144,0.000220951,-0.137953162,-0.000000167,0.000000335,0.000000000
10/02/2024,19:33:45,0.000228144,0.000219825,-0.137953162,-0.000000206,0.000000412,0.000000000
10/02/2024,19:33:45,0.000228144,0.000218699,-0.137953162,-0.000000245,0.000000489,0.000000000
10/02/2024,19:33:45,0.000228144,0.000217573,-0.137953162,-0.000000270,0.000000541,0.000000000
10/02/2024,19:33:45,0.000228144,0.000216822,-0.137953162,-0.000000296,0.000000592,0.000000000
10/02/2024,19:33:45,0.000228144,0.000215884,-0.137953162,-0.000000341,0.000000682,0.000000000
10/02/2024,19:33:45,0.000228144,0.000215134,-0.137953162,-0.000000367,0.000000734,0.000000000
10/02/2024,19:33:45,0.000228144,0.000214383,-0.137953162,-0.000000393,0.000000785,0.000000000
10/02/2024,19:33:45,0.000228144,0.000213069,-0.137953162,-0.000000438,0.000000875,0.000000000
10/02/2024,19:33:45,0.000228144,0.000212131,-0.137953162,-0.000000470,0.000000940,0.000000000
10/02/2024,19:33:45,0.000228144,0.000211381,-0.137953162,-0.000000496,0.000000991,0.000000000
10/02/2024,19:33:46,0.000228144,0.000210630,-0.137953162,-0.000000521,0.000001043,0.000000000
10/02/2024,19:33:46,0.000228144,0.000209504,-0.137953162,-0.000000560,0.000001120,0.000000000
10/02/2024,19:33:46,0.000228144,0.000208190,-0.137953162,-0.000000605,0.000001210,0.000000000
10/02/2024,19:33:46,0.000228144,0.000207628,-0.137953162,-0.000000624,0.000001249,0.000000000
10/02/2024,19:33:46,0.000228144,0.000206689,-0.137953162,-0.000000657,0.000001313,0.000000000
10/02/2024,19:33:46,0.000228144,0.000205939,-0.137953162,-0.000000682,0.000001365,0.000000000
10/02/2024,19:33:46,0.000228144,0.000204813,-0.137953162,-0.000000721,0.000001442,0.000000000
10/02/2024,19:33:46,0.000228177,0.000204095,-0.137953222,-0.000000745,0.000001490,0.000000000
10/02/2024,19:33:46,0.000228424,0.000203404,-0.137953222,-0.000000764,0.000001528,0.000000000
10/02/2024,19:33:46,0.000229068,0.000202734,-0.137953222,-0.000000779,0.000001557,0.000000000
10/02/2024,19:33:47,0.000229547,0.000202463,-0.137953222,-0.000000783,0.000001566,0.000000000
10/02/2024,19:33:47,0.000230229,0.000202206,-0.137953222,-0.000000787,0.000001573,0.000000000
10/02/2024,19:33:47,0.000230824,0.000202051,-0.137953222,-0.000000788,0.000001577,0.000000000
10/02/2024,19:33:47,0.000231615,0.000201903,-0.137953222,-0.000000790,0.000001580,0.000000000
10/02/2024,19:33:47,0.000232615,0.000201778,-0.137953222,-0.000000791,0.000001581,0.000000000
10/02/2024,19:33:47,0.000233304,0.000201716,-0.137953222,-0.000000791,0.000001582,0.000000000
10/02/2024,19:33:47,0.000234720,0.000201631,-0.137953222,-0.000000791,0.000001583,0.000000000
10/02/2024,19:33:47,0.000235441,0.000201602,-0.137953222,-0.000000792,0.000001583,0.000000000
10/02/2024,19:33:47,0.000236535,0.000201569,-0.137953222,-0.000000792,0.000001583,0.000000000
10/02/2024,19:33:47,0.000237270,0.000201554,-0.137953222,-0.000000792,0.000001583,0.000000000
10/02/2024,19:33:48,0.000238193,0.000201539,-0.137953222,-0.000000792,0.000001583,0.000000000
10/02/2024,19:33:48,0.000239306,0.000201526,-0.137953222,-0.000000792,0.000001584,0.000000000
10/02/2024,19:33:48,0.000239864,0.000201521,-0.137953222,-0.000000792,0.000001584,0.000000000
10/02/2024,19:33:48,0.000240610,0.000201516,-0.137953222,-0.000000792,0.000001584,0.000000000
10/02/2024,19:33:48,0.000241730,0.000201510,-0.137953222,-0.000000792,0.000001584,0.000000000
10/02/2024,19:33:48,0.000242478,0.000201508,-0.137953222,-0.000000792,0.000001584,0.000000000
10/02/2024,19:33:48,0.000243975,0.000201504,-0.137953222,-0.000000792,0.000001584,0.000000000
10/02/2024,19:33:48,0.000244724,0.000201502,-0.137953222,-0.000000792,0.000001584,0.000000000
10/02/2024,19:33:48,0.000245286,0.000201501,-0.137953222,-0.000000792,0.000001584,0.000000000
10/02/2024,19:33:48,0.000246411,0.000201500,-0.137953222,-0.000000792,0.000001584,0.000000000
10/02/2024,19:33:49,0.000247536,0.000201499,-0.137953222,-0.000000792,0.000001584,0.000000000
10/02/2024,19:33:49,0.000248661,0.000201499,-0.137953222,-0.000000792,0.000001584,0.000000000
10/02/2024,19:33:49,0.000249412,0.000201499,-0.137953222,-0.000000792,0.000001584,0.000000000
10/02/2024,19:33:49,0.000249975,0.000201498,-0.137953222,-0.000000792,0.000001584,0.000000000
10/02/2024,19:33:49,0.000251100,0.000201498,-0.137953222,-0.000000792,0.000001584,0.000000000
10/02/2024,19:33:49,0.000251851,0.000201498,-0.137953222,-0.000000792,0.000001584,0.000000000
10/02/2024,19:33:49,0.000253352,0.000201498,-0.137953222,-0.000000792,0.000001584,0.000000000
10/02/2024,19:33:49,0.000253727,0.000201498,-0.137953222,-0.000000792,0.000001584,0.000000000
10/02/2024,19:33:49,0.000254853,0.000201498,-0.137953222,-0.000000792,0.000001584,0.000000000
10/02/2024,19:33:49,0.000255603,0.000201498,-0.137953222,-0.000000792,0.000001584,0.000000000
10/02/2024,19:33:50,0.000256729,0.000201498,-0.137953222,-0.000000792,0.000001584,0.000000000
10/02/2024,19:33:50,0.000257480,0.000201498,-0.137953222,-0.000000792,0.000001584,0.000000000
10/02/2024,19:33:50,0.000258981,0.000201498,-0.137953222,-0.000000792,0.000001584,0.000000000
10/02/2024,19:33:50,0.000259356,0.000201498,-0.137953222,-0.000000792,0.000001584,0.000000000
10/02/2024,19:33:50,0.000260482,0.000201498,-0.137953222,-0.000000792,0.000001584,0.000000000
10/02/2024,19:33:50,0.000261233,0.000201498,-0.137953222,-0.000000792,0.000001584,0.000000000
10/02/2024,19:33:50,0.000261983,0.000201498,-0.137953222,-0.000000792,0.000001584,0.000000000
10/02/2024,19:33:50,0.000263109,0.000201498,-0.137953222,-0.000000792,0.000001584,0.000000000
10/02/2024,19:33:50,0.000264235,0.000201498,-0.137953222,-0.000000792,0.000001584,0.000000000
10/02/2024,19:33:50,0.000264986,0.000201498,-0.137953222,-0.000000792,0.000001584,0.000000000
10/02/2024,19:33:51,0.000266299,0.000201498,-0.137953222,-0.000000792,0.000001584,0.000000000
10/02/2024,19:33:51,0.000267050,0.000201498,-0.137953222,-0.000000792,0.000001584,0.000000000
10/02/2024,19:33:51,0.000267801,0.000201498,-0.137953222,-0.000000792,0.000001584,0.000000000
10/02/2024,19:33:51,0.000268926,0.000201498,-0.137953222,-0.000000792,0.000001584,0.000000000
10/02/2024,19:33:51,0.000270240,0.000201498,-0.137953222,-0.000000792,0.000001584,0.000000000
10/02/2024,19:33:51,0.000270615,0.000201498,-0.137953222,-0.000000792,0.000001584,0.000000000
10/02/2024,19:33:51,0.000271554,0.000201498,-0.137953222,-0.000000792,0.000001584,0.000000000
10/02/2024,19:33:51,0.000273055,0.000201498,-0.137953222,-0.000000792,0.000001584,0.000000000
10/02/2024,19:33:51,0.000273805,0.000201498,-0.137953222,-0.000000792,0.000001584,0.000000000
10/02/2024,19:33:51,0.000274931,0.000201498,-0.137953222,-0.000000792,0.000001584,0.000000000
10/02/2024,19:33:52,0.000275307,0.000201498,-0.137953222,-0.000000792,0.000001584,0.000000000
10/02/2024,19:33:52,0.000276808,0.000201498,-0.137953222,-0.000000792,0.000001584,0.000000000
10/02/2024,19:33:52,0.000277746,0.000201498,-0.137953222,-0.000000792,0.000001584,0.000000000
10/02/2024,19:33:52,0.000278121,0.000201498,-0.137953222,-0.000000792,0.000001584,0.000000000
10/02/2024,19:33:52,0.000278904,0.000201498,-0.137953222,-0.000000792,0.000001584,0.000000000
10/02/2024,19:33:52,0.000279573,0.000201498,-0.137953132,-0.000000792,0.000001584,0.000000000
10/02/2024,19:33:52,0.000279969,0.000201498,-0.137953132,-0.000000792,0.000001584,0.000000000
10/02/2024,19:33:52,0.000280259,0.000201498,-0.137953132,-0.000000792,0.000001584,0.000000000
10/02/2024,19:33:52,0.000280435,0.000201498,-0.137953132,-0.000000792,0.000001584,0.000000000
10/02/2024,19:33:52,0.000280811,0.000201498,-0.137953177,-0.000000792,0.000001584,0.000000000
10/02/2024,19:33:53,0.000281283,0.000201498,-0.137953252,-0.000000792,0.000001584,0.000000000
10/02/2024,19:33:53,0.000281880,0.000201498,-0.137953267,-0.000000792,0.000001584,0.000000000
10/02/2024,19:33:53,0.000282283,0.000201498,-0.137953267,-0.000000792,0.000001584,0.000000000
10/02/2024,19:33:53,0.000283012,0.000201498,-0.137953252,-0.000000792,0.000001584,0.000000000
10/02/2024,19:33:53,0.000284224,0.000201498,-0.137953177,-0.000000792,0.000001584,0.000000000
10/02/2024,19:33:53,0.000284578,0.000201498,-0.137953132,-0.000000792,0.000001584,0.000000000
10/02/2024,19:33:53,0.000285117,0.000201498,-0.137953132,-0.000000792,0.000001584,0.000000000
10/02/2024,19:33:53,0.000285380,0.000201498,-0.137953132,-0.000000792,0.000001584,0.000000000
10/02/2024,19:33:53,0.000285629,0.000201498,-0.137953132,-0.000000792,0.000001584,0.000000000
10/02/2024,19:33:53,0.000285811,0.000201498,-0.137953132,-0.000000792,0.000001584,0.000000000
10/02/2024,19:33:54,0.000285989,0.000201498,-0.137953132,-0.000000792,0.000001584,0.000000000
10/02/2024,19:33:54,0.000286044,0.000201498,-0.137953132,-0.000000792,0.000001584,0.000000000
10/02/2024,19:33:54,0.000286116,0.000201498,-0.137953132,-0.000000792,0.000001584,0.000000000
10/02/2024,19:33:54,0.000286186,0.000201498,-0.137953132,-0.000000792,0.000001584,0.000000000
10/02/2024,19:33:54,0.000286215,0.000201498,-0.137953132,-0.000000792,0.000001584,0.000000000
10/02/2024,19:33:54,0.000286246,0.000201498,-0.137953132,-0.000000792,0.000001584,0.000000000
10/02/2024,19:33:54,0.000286258,0.000201498,-0.137953132,-0.000000792,0.000001584,0.000000000
10/02/2024,19:33:54,0.000286273,0.000201498,-0.137953132,-0.000000792,0.000001584,0.000000000
10/02/2024,19:33:54,0.000286288,0.000201498,-0.137953132,-0.000000792,0.000001584,0.000000000
10/02/2024,19:33:54,0.000286292,0.000201498,-0.137953132,-0.000000792,0.000001584,0.000000000
10/02/2024,19:33:55,0.000286300,0.000201498,-0.137953132,-0.000000792,0.000001584,0.000000000
10/02/2024,19:33:55,0.000286304,0.000201498,-0.137953132,-0.000000792,0.000001584,0.000000000
10/02/2024,19:33:55,0.000286307,0.000201498,-0.137953132,-0.000000792,0.000001584,0.000000000
10/02/2024,19:33:55,0.000286309,0.000201498,-0.137953132,-0.000000792,0.000001584,0.000000000
10/02/2024,19:33:55,0.000286311,0.000201498,-0.137953132,-0.000000792,0.000001584,0.000000000
10/02/2024,19:33:55,0.000286312,0.000201498,-0.137953132,-0.000000792,0.000001584,0.000000000
10/02/2024,19:33:55,0.000286313,0.000201498,-0.137953132,-0.000000792,0.000001584,0.000000000
10/02/2024,19:33:55,0.000286314,0.000201498,-0.137953132,-0.000000792,0.000001584,0.000000000
10/02/2024,19:33:55,0.000286314,0.000201498,-0.137953132,-0.000000792,0.000001584,0.000000000
